{
"type": "FeatureCollection",
"name": "lycees-publics-lille-effectifs-ses-ips",
"crs": { "type": "name", "properties": { "name": "urn:ogc:def:crs:OGC:1.3:CRS84" } },
"features": [
{ "type": "Feature", "properties": { "uid": 2, "identifiant_etablissement": "0620063G", "nom_etablissement": "Lycée général et technologique Sophie Berthelot", "type_etablissement": "Lycée", "code_postal": 62104, "nom_commune": "Calais", "ips_voie_gt_2021": 103.2, "effectif_total_ses_2022": 191 }, "geometry": { "type": "Point", "coordinates": [ 1.843350109781972, 50.946620266863945 ] } },
{ "type": "Feature", "properties": { "uid": 3, "identifiant_etablissement": "0620006V", "nom_etablissement": "Lycée Robespierre", "type_etablissement": "Lycée", "code_postal": 62022, "nom_commune": "Arras", "ips_voie_gt_2021": 120.0, "effectif_total_ses_2022": 170 }, "geometry": { "type": "Point", "coordinates": [ 2.765520401179749, 50.28746924484588 ] } },
{ "type": "Feature", "properties": { "uid": 4, "identifiant_etablissement": "0590060V", "nom_etablissement": "Lycée Alfred Kastler", "type_etablissement": "Lycée", "code_postal": 59723, "nom_commune": "Denain", "ips_voie_gt_2021": 86.8, "effectif_total_ses_2022": 98 }, "geometry": { "type": "Point", "coordinates": [ 3.408960402671094, 50.330753609967758 ] } },
{ "type": "Feature", "properties": { "uid": 5, "identifiant_etablissement": "0590044C", "nom_etablissement": "Lycée polyvalent Joseph-Marie Jacquard", "type_etablissement": "Lycée", "code_postal": 59544, "nom_commune": "Caudry", "ips_voie_gt_2021": 90.1, "effectif_total_ses_2022": 77 }, "geometry": { "type": "Point", "coordinates": [ 3.402319515268941, 50.126029218715978 ] } },
{ "type": "Feature", "properties": { "uid": 6, "identifiant_etablissement": "0590116F", "nom_etablissement": "Lycée Fénelon", "type_etablissement": "Lycée", "code_postal": 59013, "nom_commune": "Lille", "ips_voie_gt_2021": 114.3, "effectif_total_ses_2022": 149 }, "geometry": { "type": "Point", "coordinates": [ 3.057650635014151, 50.631623933111101 ] } },
{ "type": "Feature", "properties": { "uid": 7, "identifiant_etablissement": "0590121L", "nom_etablissement": "Lycée Baggio", "type_etablissement": "Lycée", "code_postal": 59000, "nom_commune": "Lille", "ips_voie_gt_2021": 96.1, "effectif_total_ses_2022": 27 }, "geometry": { "type": "Point", "coordinates": [ 3.068310668691239, 50.61704679945079 ] } },
{ "type": "Feature", "properties": { "uid": 8, "identifiant_etablissement": "0590233H", "nom_etablissement": "Lycée polyvalent Emile Zola", "type_etablissement": "Lycée", "code_postal": 59391, "nom_commune": "Wattrelos", "ips_voie_gt_2021": 83.8, "effectif_total_ses_2022": 67 }, "geometry": { "type": "Point", "coordinates": [ 3.231779940225008, 50.706592993300895 ] } },
{ "type": "Feature", "properties": { "uid": 9, "identifiant_etablissement": "0590181B", "nom_etablissement": "Lycée Maxence Van Der Meersch", "type_etablissement": "Lycée", "code_postal": 59052, "nom_commune": "Roubaix", "ips_voie_gt_2021": 88.2, "effectif_total_ses_2022": 142 }, "geometry": { "type": "Point", "coordinates": [ 3.207219969314574, 50.681280837629195 ] } },
{ "type": "Feature", "properties": { "uid": 10, "identifiant_etablissement": "0597005U", "nom_etablissement": "Lycée polyvalent Val de Lys", "type_etablissement": "Lycée", "code_postal": 59940, "nom_commune": "Estaires", "ips_voie_gt_2021": 105.7, "effectif_total_ses_2022": 96 }, "geometry": { "type": "Point", "coordinates": [ 2.704489762026457, 50.644029993116504 ] } },
{ "type": "Feature", "properties": { "uid": 11, "identifiant_etablissement": "0590110Z", "nom_etablissement": "Lycée Jean Perrin", "type_etablissement": "Lycée", "code_postal": 59832, "nom_commune": "Lambersart", "ips_voie_gt_2021": 121.3, "effectif_total_ses_2022": 269 }, "geometry": { "type": "Point", "coordinates": [ 3.039149349165658, 50.647589949494296 ] } },
{ "type": "Feature", "properties": { "uid": 12, "identifiant_etablissement": "0596925G", "nom_etablissement": "Lycée polyvalent Charlotte Perriand", "type_etablissement": "Lycée", "code_postal": 59242, "nom_commune": "Genech", "ips_voie_gt_2021": 132.8, "effectif_total_ses_2022": 310 }, "geometry": { "type": "Point", "coordinates": [ 3.218869763943286, 50.522697340886587 ] } },
{ "type": "Feature", "properties": { "uid": 13, "identifiant_etablissement": "0590168M", "nom_etablissement": "Lycée polyvalent Eugène Thomas", "type_etablissement": "Lycée", "code_postal": 59530, "nom_commune": "Le Quesnoy", "ips_voie_gt_2021": 118.7, "effectif_total_ses_2022": 107 }, "geometry": { "type": "Point", "coordinates": [ 3.646139313516126, 50.246676623203015 ] } },
{ "type": "Feature", "properties": { "uid": 14, "identifiant_etablissement": "0623915U", "nom_etablissement": "Lycée Voltaire", "type_etablissement": "Lycée", "code_postal": 62410, "nom_commune": "Wingles", "ips_voie_gt_2021": 109.4, "effectif_total_ses_2022": 162 }, "geometry": { "type": "Point", "coordinates": [ 2.854690411090086, 50.488411414449956 ] } },
{ "type": "Feature", "properties": { "uid": 25, "identifiant_etablissement": "0622803K", "nom_etablissement": "Lycée général et technologique Blaise Pascal", "type_etablissement": "Lycée", "code_postal": 62967, "nom_commune": "Longuenesse", "ips_voie_gt_2021": 107.9, "effectif_total_ses_2022": 68 }, "geometry": { "type": "Point", "coordinates": [ 2.256139744359702, 50.738679713561851 ] } },
{ "type": "Feature", "properties": { "uid": 26, "identifiant_etablissement": "0620093P", "nom_etablissement": "Lycée Fernand Darchicourt", "type_etablissement": "Lycée", "code_postal": 62251, "nom_commune": "Hénin-Beaumont", "ips_voie_gt_2021": 97.2, "effectif_total_ses_2022": 170 }, "geometry": { "type": "Point", "coordinates": [ 2.960130625900682, 50.411396999405419 ] } },
{ "type": "Feature", "properties": { "uid": 28, "identifiant_etablissement": "0620140R", "nom_etablissement": "Lycée polyvalent Eugène Woillez", "type_etablissement": "Lycée", "code_postal": 62170, "nom_commune": "Montreuil", "ips_voie_gt_2021": 109.7, "effectif_total_ses_2022": 164 }, "geometry": { "type": "Point", "coordinates": [ 1.765839776882543, 50.464631379622155 ] } },
{ "type": "Feature", "properties": { "uid": 29, "identifiant_etablissement": "0624141P", "nom_etablissement": "Lycée polyvalent Léonard de Vinci", "type_etablissement": "Lycée", "code_postal": 62228, "nom_commune": "Calais", "ips_voie_gt_2021": 99.1, "effectif_total_ses_2022": 148 }, "geometry": { "type": "Point", "coordinates": [ 1.880099392436458, 50.952390381503008 ] } },
{ "type": "Feature", "properties": { "uid": 33, "identifiant_etablissement": "0594424N", "nom_etablissement": "Lycée Raymond Queneau", "type_etablissement": "Lycée", "code_postal": 59650, "nom_commune": "Villeneuve-d'Ascq", "ips_voie_gt_2021": 106.4, "effectif_total_ses_2022": 190 }, "geometry": { "type": "Point", "coordinates": [ 3.131860327131067, 50.625526659534792 ] } },
{ "type": "Feature", "properties": { "uid": 36, "identifiant_etablissement": "0590122M", "nom_etablissement": "Lycée Valentine Labbé", "type_etablissement": "Lycée", "code_postal": 59563, "nom_commune": "La Madeleine", "ips_voie_gt_2021": 91.4, "effectif_total_ses_2022": 33 }, "geometry": { "type": "Point", "coordinates": [ 3.072290231459998, 50.647633412189506 ] } },
{ "type": "Feature", "properties": { "uid": 37, "identifiant_etablissement": "0620166U", "nom_etablissement": "Lycée Albert Châtelet", "type_etablissement": "Lycée", "code_postal": 62165, "nom_commune": "Saint-Pol-sur-Ternoise", "ips_voie_gt_2021": 106.6, "effectif_total_ses_2022": 124 }, "geometry": { "type": "Point", "coordinates": [ 2.345539675265443, 50.385685654352208 ] } },
{ "type": "Feature", "properties": { "uid": 38, "identifiant_etablissement": "0620027T", "nom_etablissement": "Lycée polyvalent Pablo Picasso", "type_etablissement": "Lycée", "code_postal": 62210, "nom_commune": "Avion", "ips_voie_gt_2021": 85.5, "effectif_total_ses_2022": 96 }, "geometry": { "type": "Point", "coordinates": [ 2.83417932713331, 50.402910146690743 ] } },
{ "type": "Feature", "properties": { "uid": 39, "identifiant_etablissement": "0620070P", "nom_etablissement": "Lycée Diderot", "type_etablissement": "Lycée", "code_postal": 62211, "nom_commune": "Carvin", "ips_voie_gt_2021": 100.0, "effectif_total_ses_2022": 139 }, "geometry": { "type": "Point", "coordinates": [ 2.947589960987671, 50.490856216535505 ] } },
{ "type": "Feature", "properties": { "uid": 40, "identifiant_etablissement": "0590064Z", "nom_etablissement": "Lycée Jean-Baptiste Corot", "type_etablissement": "Lycée", "code_postal": 59508, "nom_commune": "Douai", "ips_voie_gt_2021": 100.8, "effectif_total_ses_2022": 176 }, "geometry": { "type": "Point", "coordinates": [ 3.078620635648001, 50.374513721923151 ] } },
{ "type": "Feature", "properties": { "uid": 41, "identifiant_etablissement": "0590222W", "nom_etablissement": "Lycée Watteau", "type_etablissement": "Lycée", "code_postal": 59307, "nom_commune": "Valenciennes", "ips_voie_gt_2021": 116.1, "effectif_total_ses_2022": 204 }, "geometry": { "type": "Point", "coordinates": [ 3.531169640853643, 50.358516211529228 ] } },
{ "type": "Feature", "properties": { "uid": 46, "identifiant_etablissement": "0596892W", "nom_etablissement": "Lycée Edgar Morin", "type_etablissement": "Lycée", "code_postal": 59500, "nom_commune": "Douai", "ips_voie_gt_2021": 89.6, "effectif_total_ses_2022": 47 }, "geometry": { "type": "Point", "coordinates": [ 3.070810112711842, 50.367722368189305 ] } },
{ "type": "Feature", "properties": { "uid": 57, "identifiant_etablissement": "0622276M", "nom_etablissement": "Lycée polyvalent Jan Lavezzari", "type_etablissement": "Lycée", "code_postal": 62602, "nom_commune": "Berck", "ips_voie_gt_2021": 105.9, "effectif_total_ses_2022": 68 }, "geometry": { "type": "Point", "coordinates": [ 1.559497141960659, 50.398134026234743 ] } },
{ "type": "Feature", "properties": { "uid": 58, "identifiant_etablissement": "0590112B", "nom_etablissement": "Lycée Dupleix", "type_etablissement": "Lycée", "code_postal": 59550, "nom_commune": "Landrecies", "ips_voie_gt_2021": 102.6, "effectif_total_ses_2022": 96 }, "geometry": { "type": "Point", "coordinates": [ 3.68562043758952, 50.123124703913263 ] } },
{ "type": "Feature", "properties": { "uid": 59, "identifiant_etablissement": "0620042J", "nom_etablissement": "Lycée général et technologique André Malraux", "type_etablissement": "Lycée", "code_postal": 62408, "nom_commune": "Béthune", "ips_voie_gt_2021": 105.0, "effectif_total_ses_2022": 42 }, "geometry": { "type": "Point", "coordinates": [ 2.654258625948719, 50.520550178058862 ] } },
{ "type": "Feature", "properties": { "uid": 60, "identifiant_etablissement": "0620052V", "nom_etablissement": "Lycée polyvalent Edouard Branly", "type_etablissement": "Lycée", "code_postal": 62321, "nom_commune": "Boulogne-sur-Mer", "ips_voie_gt_2021": 105.1, "effectif_total_ses_2022": 109 }, "geometry": { "type": "Point", "coordinates": [ 1.616930540314754, 50.720269672151787 ] } },
{ "type": "Feature", "properties": { "uid": 68, "identifiant_etablissement": "0620062F", "nom_etablissement": "Lycée général et technologique Pierre de Coubertin", "type_etablissement": "Lycée", "code_postal": 62225, "nom_commune": "Calais", "ips_voie_gt_2021": 104.0, "effectif_total_ses_2022": 109 }, "geometry": { "type": "Point", "coordinates": [ 1.836020177843868, 50.956703668662961 ] } },
{ "type": "Feature", "properties": { "uid": 69, "identifiant_etablissement": "0624440P", "nom_etablissement": "Lycée polyvalent d'Artois", "type_etablissement": "Lycée", "code_postal": 62290, "nom_commune": "Noeux-les-Mines", "ips_voie_gt_2021": 97.8, "effectif_total_ses_2022": 119 }, "geometry": { "type": "Point", "coordinates": [ 2.659949605288074, 50.472782357429715 ] } },
{ "type": "Feature", "properties": { "uid": 70, "identifiant_etablissement": "0620017G", "nom_etablissement": "Lycée général et technologique Lavoisier", "type_etablissement": "Lycée", "code_postal": 62260, "nom_commune": "Auchel", "ips_voie_gt_2021": 86.8, "effectif_total_ses_2022": 49 }, "geometry": { "type": "Point", "coordinates": [ 2.476169373331341, 50.507035411959208 ] } },
{ "type": "Feature", "properties": { "uid": 71, "identifiant_etablissement": "0622949U", "nom_etablissement": "Lycée général et technologique Mariette", "type_etablissement": "Lycée", "code_postal": 62321, "nom_commune": "Boulogne-sur-Mer", "ips_voie_gt_2021": 103.0, "effectif_total_ses_2022": 200 }, "geometry": { "type": "Point", "coordinates": [ 1.61089946209174, 50.732314333085618 ] } },
{ "type": "Feature", "properties": { "uid": 72, "identifiant_etablissement": "0620161N", "nom_etablissement": "Lycée général et technologique Alexandre Ribot", "type_etablissement": "Lycée", "code_postal": 62505, "nom_commune": "Saint-Omer", "ips_voie_gt_2021": 106.1, "effectif_total_ses_2022": 226 }, "geometry": { "type": "Point", "coordinates": [ 2.258739419240545, 50.748101825289979 ] } },
{ "type": "Feature", "properties": { "uid": 73, "identifiant_etablissement": "0620256S", "nom_etablissement": "Lycée polyvalent Guy Mollet", "type_etablissement": "Lycée", "code_postal": 62022, "nom_commune": "Arras", "ips_voie_gt_2021": 105.4, "effectif_total_ses_2022": 262 }, "geometry": { "type": "Point", "coordinates": [ 2.794555687154672, 50.279978014305883 ] } },
{ "type": "Feature", "properties": { "uid": 74, "identifiant_etablissement": "0590072H", "nom_etablissement": "Lycée de l'Europe", "type_etablissement": "Lycée", "code_postal": 59640, "nom_commune": "Dunkerque", "ips_voie_gt_2021": 91.8, "effectif_total_ses_2022": 156 }, "geometry": { "type": "Point", "coordinates": [ 2.354729312970334, 51.018125652660665 ] } },
{ "type": "Feature", "properties": { "uid": 75, "identifiant_etablissement": "0590086Y", "nom_etablissement": "Lycée Marguerite de Flandre", "type_etablissement": "Lycée", "code_postal": 59147, "nom_commune": "Gondecourt", "ips_voie_gt_2021": 125.9, "effectif_total_ses_2022": 361 }, "geometry": { "type": "Point", "coordinates": [ 2.981010390567804, 50.543046636765162 ] } },
{ "type": "Feature", "properties": { "uid": 76, "identifiant_etablissement": "0590119J", "nom_etablissement": "Lycée Faidherbe", "type_etablissement": "Lycée", "code_postal": 59034, "nom_commune": "Lille", "ips_voie_gt_2021": 113.8, "effectif_total_ses_2022": 314 }, "geometry": { "type": "Point", "coordinates": [ 3.077700264021204, 50.614764443628879 ] } },
{ "type": "Feature", "properties": { "uid": 77, "identifiant_etablissement": "0590282L", "nom_etablissement": "Lycée Jules Mousseron", "type_etablissement": "Lycée", "code_postal": 59723, "nom_commune": "Denain", "ips_voie_gt_2021": 88.5, "effectif_total_ses_2022": 136 }, "geometry": { "type": "Point", "coordinates": [ 3.396997789526871, 50.322578433318711 ] } },
{ "type": "Feature", "properties": { "uid": 78, "identifiant_etablissement": "0590073J", "nom_etablissement": "Lycée Auguste Angellier", "type_etablissement": "Lycée", "code_postal": 59942, "nom_commune": "Dunkerque", "ips_voie_gt_2021": 114.8, "effectif_total_ses_2022": 187 }, "geometry": { "type": "Point", "coordinates": [ 2.375574051603484, 51.032208863353134 ] } },
{ "type": "Feature", "properties": { "uid": 79, "identifiant_etablissement": "0595885B", "nom_etablissement": "Lycée Arthur Rimbaud", "type_etablissement": "Lycée", "code_postal": 59450, "nom_commune": "Sin-le-Noble", "ips_voie_gt_2021": 103.4, "effectif_total_ses_2022": 181 }, "geometry": { "type": "Point", "coordinates": [ 3.10809937334314, 50.347635305312394 ] } },
{ "type": "Feature", "properties": { "uid": 80, "identifiant_etablissement": "0590182C", "nom_etablissement": "Lycée Charles Baudelaire", "type_etablissement": "Lycée", "code_postal": 59100, "nom_commune": "Roubaix", "ips_voie_gt_2021": 89.6, "effectif_total_ses_2022": 198 }, "geometry": { "type": "Point", "coordinates": [ 3.167980164666059, 50.679444830540582 ] } },
{ "type": "Feature", "properties": { "uid": 81, "identifiant_etablissement": "0590207E", "nom_etablissement": "Lycée Louis Pasteur", "type_etablissement": "Lycée", "code_postal": 59490, "nom_commune": "Somain", "ips_voie_gt_2021": 101.4, "effectif_total_ses_2022": 144 }, "geometry": { "type": "Point", "coordinates": [ 3.283050190891089, 50.349450800145213 ] } },
{ "type": "Feature", "properties": { "uid": 82, "identifiant_etablissement": "0590083V", "nom_etablissement": "Lycée polyvalent Camille Claudel", "type_etablissement": "Lycée", "code_postal": 59613, "nom_commune": "Fourmies", "ips_voie_gt_2021": 94.6, "effectif_total_ses_2022": 107 }, "geometry": { "type": "Point", "coordinates": [ 4.043389599129955, 50.009882926179806 ] } },
{ "type": "Feature", "properties": { "uid": 94, "identifiant_etablissement": "0590065A", "nom_etablissement": "Lycée polyvalent Elisa Lemonnier - section d'enseignement professionnel", "type_etablissement": "Lycée", "code_postal": 59508, "nom_commune": "Douai", "ips_voie_gt_2021": 88.5, "effectif_total_ses_2022": 8 }, "geometry": { "type": "Point", "coordinates": [ 3.069979542015536, 50.377110751964821 ] } },
{ "type": "Feature", "properties": { "uid": 96, "identifiant_etablissement": "0620056Z", "nom_etablissement": "Lycée polyvalent Carnot", "type_etablissement": "Lycée", "code_postal": 62701, "nom_commune": "Bruay-la-Buissière", "ips_voie_gt_2021": 95.7, "effectif_total_ses_2022": 138 }, "geometry": { "type": "Point", "coordinates": [ 2.544274883299731, 50.480074477316144 ] } },
{ "type": "Feature", "properties": { "uid": 97, "identifiant_etablissement": "0590149S", "nom_etablissement": "Lycée polyvalent Pierre Forest", "type_etablissement": "Lycée", "code_postal": 59605, "nom_commune": "Maubeuge", "ips_voie_gt_2021": 93.2, "effectif_total_ses_2022": 2 }, "geometry": { "type": "Point", "coordinates": [ 3.980169926366982, 50.281940156199667 ] } },
{ "type": "Feature", "properties": { "uid": 99, "identifiant_etablissement": "0590063Y", "nom_etablissement": "Lycée Albert Châtelet", "type_etablissement": "Lycée", "code_postal": 59500, "nom_commune": "Douai", "ips_voie_gt_2021": 119.7, "effectif_total_ses_2022": 234 }, "geometry": { "type": "Point", "coordinates": [ 3.085550178609437, 50.373869011372257 ] } },
{ "type": "Feature", "properties": { "uid": 100, "identifiant_etablissement": "0590071G", "nom_etablissement": "Lycée Jean Bart", "type_etablissement": "Lycée", "code_postal": 59383, "nom_commune": "Dunkerque", "ips_voie_gt_2021": 108.7, "effectif_total_ses_2022": 277 }, "geometry": { "type": "Point", "coordinates": [ 2.384053598737123, 51.036868994286124 ] } },
{ "type": "Feature", "properties": { "uid": 102, "identifiant_etablissement": "0590143K", "nom_etablissement": "Lycée Yves Kernanec", "type_etablissement": "Lycée", "code_postal": 59702, "nom_commune": "Marcq-en-Baroeul", "ips_voie_gt_2021": 127.1, "effectif_total_ses_2022": 225 }, "geometry": { "type": "Point", "coordinates": [ 3.08641960724839, 50.66201238713699 ] } },
{ "type": "Feature", "properties": { "uid": 103, "identifiant_etablissement": "0623981R", "nom_etablissement": "Lycée polyvalent Vauban", "type_etablissement": "Lycée", "code_postal": 62120, "nom_commune": "Aire-sur-la-Lys", "ips_voie_gt_2021": 110.6, "effectif_total_ses_2022": 154 }, "geometry": { "type": "Point", "coordinates": [ 2.406720569097017, 50.634305832867312 ] } },
{ "type": "Feature", "properties": { "uid": 104, "identifiant_etablissement": "0624430D", "nom_etablissement": "Lycée Gambetta Carnot", "type_etablissement": "Lycée", "code_postal": 62022, "nom_commune": "Arras", "ips_voie_gt_2021": 111.6, "effectif_total_ses_2022": 195 }, "geometry": { "type": "Point", "coordinates": [ 2.776829519920408, 50.28847161491862 ] } },
{ "type": "Feature", "properties": { "uid": 105, "identifiant_etablissement": "0620108F", "nom_etablissement": "Lycée Condorcet", "type_etablissement": "Lycée", "code_postal": 62303, "nom_commune": "Lens", "ips_voie_gt_2021": 87.4, "effectif_total_ses_2022": 113 }, "geometry": { "type": "Point", "coordinates": [ 2.838310487463382, 50.431340669712974 ] } },
{ "type": "Feature", "properties": { "uid": 106, "identifiant_etablissement": "0620113L", "nom_etablissement": "Lycée Henri Darras", "type_etablissement": "Lycée", "code_postal": 62803, "nom_commune": "Liévin", "ips_voie_gt_2021": 99.5, "effectif_total_ses_2022": 217 }, "geometry": { "type": "Point", "coordinates": [ 2.770584761939664, 50.41145260085608 ] } },
{ "type": "Feature", "properties": { "uid": 107, "identifiant_etablissement": "0590212K", "nom_etablissement": "Lycée Gambetta", "type_etablissement": "Lycée", "code_postal": 59208, "nom_commune": "Tourcoing", "ips_voie_gt_2021": 98.3, "effectif_total_ses_2022": 294 }, "geometry": { "type": "Point", "coordinates": [ 3.156950601176176, 50.712679872728522 ] } },
{ "type": "Feature", "properties": { "uid": 109, "identifiant_etablissement": "0595809U", "nom_etablissement": "Lycée de l'Escaut", "type_etablissement": "Lycée", "code_postal": 59305, "nom_commune": "Valenciennes", "ips_voie_gt_2021": 99.5, "effectif_total_ses_2022": 206 }, "geometry": { "type": "Point", "coordinates": [ 3.514480197879377, 50.3645590407098 ] } },
{ "type": "Feature", "properties": { "uid": 110, "identifiant_etablissement": "0590101P", "nom_etablissement": "Lycée des Flandres", "type_etablissement": "Lycée", "code_postal": 59522, "nom_commune": "Hazebrouck", "ips_voie_gt_2021": 115.2, "effectif_total_ses_2022": 264 }, "geometry": { "type": "Point", "coordinates": [ 2.529060997950157, 50.731177041272879 ] } },
{ "type": "Feature", "properties": { "uid": 111, "identifiant_etablissement": "0596854E", "nom_etablissement": "Lycée polyvalent du Pays de Condé", "type_etablissement": "Lycée", "code_postal": 59163, "nom_commune": "Condé-sur-l'Escaut", "ips_voie_gt_2021": 84.1, "effectif_total_ses_2022": 116 }, "geometry": { "type": "Point", "coordinates": [ 3.583239328566915, 50.461751980642923 ] } },
{ "type": "Feature", "properties": { "uid": 112, "identifiant_etablissement": "0590117G", "nom_etablissement": "Lycée Louis Pasteur", "type_etablissement": "Lycée", "code_postal": 59000, "nom_commune": "Lille", "ips_voie_gt_2021": 114.7, "effectif_total_ses_2022": 232 }, "geometry": { "type": "Point", "coordinates": [ 3.070139457422966, 50.642779647074164 ] } },
{ "type": "Feature", "properties": { "uid": 113, "identifiant_etablissement": "0590185F", "nom_etablissement": "Lycée polyvalent Jean Moulin", "type_etablissement": "Lycée", "code_postal": 59051, "nom_commune": "Roubaix", "ips_voie_gt_2021": 67.1, "effectif_total_ses_2022": 40 }, "geometry": { "type": "Point", "coordinates": [ 3.172905544553935, 50.685333757812288 ] } },
{ "type": "Feature", "properties": { "uid": 114, "identifiant_etablissement": "0590221V", "nom_etablissement": "Lycée Henri Wallon", "type_etablissement": "Lycée", "code_postal": 59322, "nom_commune": "Valenciennes", "ips_voie_gt_2021": 104.9, "effectif_total_ses_2022": 238 }, "geometry": { "type": "Point", "coordinates": [ 3.521199684944083, 50.364073876597814 ] } },
{ "type": "Feature", "properties": { "uid": 115, "identifiant_etablissement": "0590010R", "nom_etablissement": "Lycée Paul Hazard", "type_etablissement": "Lycée", "code_postal": 59426, "nom_commune": "Armentières", "ips_voie_gt_2021": 108.5, "effectif_total_ses_2022": 207 }, "geometry": { "type": "Point", "coordinates": [ 2.876341466792121, 50.688301741442004 ] } },
{ "type": "Feature", "properties": { "uid": 116, "identifiant_etablissement": "0590192N", "nom_etablissement": "Lycée polyvalent Ernest Couteaux", "type_etablissement": "Lycée", "code_postal": 59734, "nom_commune": "Saint-Amand-les-Eaux", "ips_voie_gt_2021": 111.2, "effectif_total_ses_2022": 164 }, "geometry": { "type": "Point", "coordinates": [ 3.443630167896997, 50.448499212313365 ] } },
{ "type": "Feature", "properties": { "uid": 129, "identifiant_etablissement": "0620040G", "nom_etablissement": "Lycée général et technologique Louis Blaringhem", "type_etablissement": "Lycée", "code_postal": 62408, "nom_commune": "Béthune", "ips_voie_gt_2021": 119.6, "effectif_total_ses_2022": 326 }, "geometry": { "type": "Point", "coordinates": [ 2.64317991687807, 50.53007616531432 ] } },
{ "type": "Feature", "properties": { "uid": 137, "identifiant_etablissement": "0624109E", "nom_etablissement": "Lycée polyvalent Giraux Sannier", "type_etablissement": "Lycée", "code_postal": 62280, "nom_commune": "Saint-Martin-Boulogne", "ips_voie_gt_2021": 105.6, "effectif_total_ses_2022": 115 }, "geometry": { "type": "Point", "coordinates": [ 1.635439961858573, 50.721837341622255 ] } },
{ "type": "Feature", "properties": { "uid": 138, "identifiant_etablissement": "0623902E", "nom_etablissement": "Lycée polyvalent Marguerite Yourcenar", "type_etablissement": "Lycée", "code_postal": 62660, "nom_commune": "Beuvry", "ips_voie_gt_2021": 97.2, "effectif_total_ses_2022": 96 }, "geometry": { "type": "Point", "coordinates": [ 2.663069709245919, 50.517958899059678 ] } },
{ "type": "Feature", "properties": { "uid": 139, "identifiant_etablissement": "0620109G", "nom_etablissement": "Lycée Auguste Béhal", "type_etablissement": "Lycée", "code_postal": 62300, "nom_commune": "Lens", "ips_voie_gt_2021": 82.4, "effectif_total_ses_2022": 49 }, "geometry": { "type": "Point", "coordinates": [ 2.824519890184113, 50.445310445372449 ] } },
{ "type": "Feature", "properties": { "uid": 140, "identifiant_etablissement": "0620095S", "nom_etablissement": "Lycée polyvalent Louis Pasteur", "type_etablissement": "Lycée", "code_postal": 62251, "nom_commune": "Hénin-Beaumont", "ips_voie_gt_2021": 92.8, "effectif_total_ses_2022": 62 }, "geometry": { "type": "Point", "coordinates": [ 2.947469312306459, 50.431142602253566 ] } },
{ "type": "Feature", "properties": { "uid": 141, "identifiant_etablissement": "0590024F", "nom_etablissement": "Lycée des Nerviens", "type_etablissement": "Lycée", "code_postal": 59570, "nom_commune": "Bavay", "ips_voie_gt_2021": 116.0, "effectif_total_ses_2022": 97 }, "geometry": { "type": "Point", "coordinates": [ 3.794680671485113, 50.298610453598606 ] } },
{ "type": "Feature", "properties": { "uid": 142, "identifiant_etablissement": "0590093F", "nom_etablissement": "Lycée polyvalent Beaupré", "type_etablissement": "Lycée", "code_postal": 59481, "nom_commune": "Haubourdin", "ips_voie_gt_2021": 114.4, "effectif_total_ses_2022": 184 }, "geometry": { "type": "Point", "coordinates": [ 2.987330345509049, 50.599202793596874 ] } },
{ "type": "Feature", "properties": { "uid": 143, "identifiant_etablissement": "0590035T", "nom_etablissement": "Lycée Fénelon", "type_etablissement": "Lycée", "code_postal": 59407, "nom_commune": "Cambrai", "ips_voie_gt_2021": 108.4, "effectif_total_ses_2022": 120 }, "geometry": { "type": "Point", "coordinates": [ 3.228199657567074, 50.175870780914998 ] } },
{ "type": "Feature", "properties": { "uid": 144, "identifiant_etablissement": "0590018Z", "nom_etablissement": "Lycée polyvalent Jessé de Forest", "type_etablissement": "Lycée", "code_postal": 59363, "nom_commune": "Avesnes-sur-Helpe", "ips_voie_gt_2021": 102.9, "effectif_total_ses_2022": 121 }, "geometry": { "type": "Point", "coordinates": [ 3.924170542399109, 50.121115813787497 ] } },
{ "type": "Feature", "properties": { "uid": 145, "identifiant_etablissement": "0595616J", "nom_etablissement": "Lycée du Noordover", "type_etablissement": "Lycée", "code_postal": 59792, "nom_commune": "Grande-Synthe", "ips_voie_gt_2021": 93.0, "effectif_total_ses_2022": 165 }, "geometry": { "type": "Point", "coordinates": [ 2.301880513906653, 51.010636994554822 ] } },
{ "type": "Feature", "properties": { "uid": 146, "identifiant_etablissement": "0590223X", "nom_etablissement": "Lycée du Hainaut", "type_etablissement": "Lycée", "code_postal": 59322, "nom_commune": "Valenciennes", "ips_voie_gt_2021": 95.6, "effectif_total_ses_2022": 23 }, "geometry": { "type": "Point", "coordinates": [ 3.510349990297744, 50.357662260261527 ] } },
{ "type": "Feature", "properties": { "uid": 147, "identifiant_etablissement": "0590065A", "nom_etablissement": "Lycée polyvalent Elisa Lemonnier", "type_etablissement": "Lycée", "code_postal": 59508, "nom_commune": "Douai", "ips_voie_gt_2021": 88.5, "effectif_total_ses_2022": 8 }, "geometry": { "type": "Point", "coordinates": [ 3.069979542015536, 50.377110751964821 ] } },
{ "type": "Feature", "properties": { "uid": 149, "identifiant_etablissement": "0595884A", "nom_etablissement": "Lycée polyvalent André Lurçat", "type_etablissement": "Lycée", "code_postal": 59602, "nom_commune": "Maubeuge", "ips_voie_gt_2021": 73.5, "effectif_total_ses_2022": 100 }, "geometry": { "type": "Point", "coordinates": [ 3.95751033457762, 50.272549799393786 ] } },
{ "type": "Feature", "properties": { "uid": 150, "identifiant_etablissement": "0590034S", "nom_etablissement": "Lycée Paul Duez", "type_etablissement": "Lycée", "code_postal": 59407, "nom_commune": "Cambrai", "ips_voie_gt_2021": 103.9, "effectif_total_ses_2022": 197 }, "geometry": { "type": "Point", "coordinates": [ 3.242749459341245, 50.173007005495577 ] } },
{ "type": "Feature", "properties": { "uid": 151, "identifiant_etablissement": "0595867G", "nom_etablissement": "Lycée international Montebello", "type_etablissement": "Lycée", "code_postal": 59006, "nom_commune": "Lille", "ips_voie_gt_2021": 103.6, "effectif_total_ses_2022": 291 }, "geometry": { "type": "Point", "coordinates": [ 3.047480556986195, 50.620118605335925 ] } },
{ "type": "Feature", "properties": { "uid": 152, "identifiant_etablissement": "0620120U", "nom_etablissement": "Lycée général et technologique Anatole France", "type_etablissement": "Lycée", "code_postal": 62190, "nom_commune": "Lillers", "ips_voie_gt_2021": 109.2, "effectif_total_ses_2022": 145 }, "geometry": { "type": "Point", "coordinates": [ 2.478500646465879, 50.555379966796544 ] } },
{ "type": "Feature", "properties": { "uid": 169, "identifiant_etablissement": "0620059C", "nom_etablissement": "Lycée polyvalent Léo Lagrange", "type_etablissement": "Lycée", "code_postal": 62160, "nom_commune": "Bully-les-Mines", "ips_voie_gt_2021": 92.4, "effectif_total_ses_2022": 62 }, "geometry": { "type": "Point", "coordinates": [ 2.71239976939606, 50.437884042868163 ] } },
{ "type": "Feature", "properties": { "uid": 170, "identifiant_etablissement": "0590042A", "nom_etablissement": "Lycée polyvalent Camille Desmoulins", "type_etablissement": "Lycée", "code_postal": 59360, "nom_commune": "Le Cateau-Cambrésis", "ips_voie_gt_2021": 89.4, "effectif_total_ses_2022": 63 }, "geometry": { "type": "Point", "coordinates": [ 3.541660063382094, 50.103258693866593 ] } }
]
}
